[
  {
    "name": "谷や",
    "region": "EAST",
    "prefecture": "東京都",
    "area": "水天宮前駅",
    "holiday": "不定休",
    "url": "https://tabelog.com/tokyo/A1302/A130204/13114085/",
    "lat": 35.68463709872,
    "lng": 139.7857164844053,
    "closed": false,
    "firstSelected": false
  },
  {
    "name": "藤店うどん 川越店",
    "region": "EAST",
    "prefecture": "埼玉県",
    "area": "川越市",
    "holiday": "日・祝日（土曜日は生麺のお土産販売のみの営業）",
    "url": "https://tabelog.com/saitama/A1103/A110303/11004070/",
    "lat": 35.89801240848735,
    "lng": 139.4807104167744,
    "closed": false,
    "firstSelected": false
  },
  {
    "name": "麺匠 釜善",
    "region": "EAST",
    "prefecture": "東京都",
    "area": "淡路町駅",
    "holiday": "日曜・祝日・第1第3以外の土曜",
    "url": "https://tabelog.com/tokyo/A1310/A131002/13201863/",
    "lat": 35.69369613790333,
    "lng": 139.76832178334726,
    "closed": false,
    "firstSelected": false
  },
  {
    "name": "うどん料理 千",
    "region": "EAST",
    "prefecture": "愛知県",
    "area": "伏見駅",
    "holiday": "日曜日",
    "url": "https://tabelog.com/aichi/A2301/A230102/23007583/",
    "lat": 35.16760376812992,
    "lng": 136.9017200112044,
    "closed": false,
    "firstSelected": false
  },
  {
    "name": "おにやんま 東品川店",
    "region": "EAST",
    "prefecture": "東京都",
    "area": "青物横丁駅",
    "holiday": "無休",
    "url": "https://tabelog.com/tokyo/A1315/A131501/13142095/",
    "lat": 35.61085933794863,
    "lng": 139.74534418252662,
    "closed": false,
    "firstSelected": false
  },
  {
    "name": "楢製麺",
    "region": "EAST",
    "prefecture": "東京都",
    "area": "南新宿駅",
    "holiday": "年末年始(12/27～1/1)",
    "url": "https://tabelog.com/tokyo/A1304/A130401/13234984/",
    "lat": 35.685298837886684,
    "lng": 139.6993131833108,
    "closed": false,
    "firstSelected": false
  },
  {
    "name": "うどん 錦",
    "region": "EAST",
    "prefecture": "愛知県",
    "area": "栄（名古屋）駅",
    "holiday": "日曜日、祝日",
    "url": "https://tabelog.com/aichi/A2301/A230103/23000374/",
    "lat": 35.17058594812922,
    "lng": 136.90545868123192,
    "closed": false,
    "firstSelected": false
  },
  {
    "name": "おにやんま 五反田本店",
    "region": "EAST",
    "prefecture": "東京都",
    "area": "五反田駅",
    "holiday": "無休(臨時休業有)",
    "url": "https://tabelog.com/tokyo/A1316/A131603/13111869/",
    "lat": 35.62543503793255,
    "lng": 139.7239612826888,
    "closed": false,
    "firstSelected": false
  },
  {
    "name": "賞讃",
    "region": "EAST",
    "prefecture": "東京都",
    "area": "京成立石駅",
    "holiday": "日曜日、祝日",
    "url": "https://tabelog.com/tokyo/A1324/A132403/13022111/",
    "lat": 35.730342508710145,
    "lng": 139.8459023748248,
    "closed": false,
    "firstSelected": false
  },
  {
    "name": "おのうどん",
    "region": "EAST",
    "prefecture": "埼玉県",
    "area": "北与野駅",
    "holiday": "水曜日、日曜日",
    "url": "https://tabelog.com/saitama/A1101/A110101/11000761/",
    "lat": 35.890365269209695,
    "lng": 139.61933050498212,
    "closed": false,
    "firstSelected": false
  },
  {
    "name": "豚や",
    "region": "EAST",
    "prefecture": "東京都",
    "area": "杉並区",
    "holiday": "火曜日",
    "url": "https://tabelog.com/tokyo/A1319/A131907/13018776/",
    "lat": 35.71096128864656,
    "lng": 139.60760710479607,
    "closed": false,
    "firstSelected": false
  },
  {
    "name": "おにやんま 新橋店",
    "region": "EAST",
    "prefecture": "東京都",
    "area": "新橋駅",
    "holiday": "",
    "url": "https://tabelog.com/tokyo/A1301/A130103/13162575/",
    "lat": 35.6658329379173,
    "lng": 139.756647583074,
    "closed": false,
    "firstSelected": false
  },
  {
    "name": "手打うどん すみた",
    "region": "EAST",
    "prefecture": "東京都",
    "area": "赤羽岩淵駅",
    "holiday": "月曜日、日曜日",
    "url": "https://tabelog.com/tokyo/A1323/A132305/13003783/",
    "lat": 35.780507738640296,
    "lng": 139.72663232541512,
    "closed": false,
    "firstSelected": false
  },
  {
    "name": "手打うどん長谷川",
    "region": "EAST",
    "prefecture": "東京都",
    "area": "大泉学園駅",
    "holiday": "月曜日・毎月第1火曜日・最終火曜日",
    "url": "https://tabelog.com/tokyo/A1321/A132103/13105083/",
    "lat": 35.75077460325357,
    "lng": 139.58517171331948,
    "closed": false,
    "firstSelected": false
  },
  {
    "name": "とこ井",
    "region": "EAST",
    "prefecture": "東京都",
    "area": "高円寺駅",
    "holiday": "月曜日(祝日の場合、翌火曜日）",
    "url": "https://tabelog.com/tokyo/A1319/A131904/13153065/",
    "lat": 35.70332520866463,
    "lng": 139.6491368646898,
    "closed": false,
    "firstSelected": false
  },
  {
    "name": "藤店うどん",
    "region": "EAST",
    "prefecture": "埼玉県",
    "area": "さいたま市西区",
    "holiday": "日曜日、祝日",
    "url": "https://tabelog.com/saitama/A1101/A110103/11000476/",
    "lat": 35.910647418514266,
    "lng": 139.59044876682512,
    "closed": false,
    "firstSelected": false
  },
  {
    "name": "讃岐のおうどん 花は咲く 新中野本店",
    "region": "EAST",
    "prefecture": "東京都",
    "area": "新中野駅",
    "holiday": "毎月第3水曜日",
    "url": "https://tabelog.com/tokyo/A1319/A131902/13156851/",
    "lat": 35.69919153786782,
    "lng": 139.66774898347325,
    "closed": false,
    "firstSelected": false
  },
  {
    "name": "天茶屋 七蔵",
    "region": "EAST",
    "prefecture": "東京都",
    "area": "新橋駅",
    "holiday": "土曜・日曜・祝日",
    "url": "https://tabelog.com/tokyo/A1301/A130103/13002602/",
    "lat": 35.666162418723395,
    "lng": 139.75953921423704,
    "closed": false,
    "firstSelected": false
  },
  {
    "name": "正太郎うどん",
    "region": "EAST",
    "prefecture": "東京都",
    "area": "上井草駅",
    "holiday": "水曜日",
    "url": "https://tabelog.com/tokyo/A1321/A132105/13095768/",
    "lat": 35.72990604450538,
    "lng": 139.6035058737181,
    "closed": false,
    "firstSelected": false
  },
  {
    "name": "手打うどん あかう",
    "region": "EAST",
    "prefecture": "東京都",
    "area": "日暮里駅",
    "holiday": "火曜日、水曜日",
    "url": "https://tabelog.com/tokyo/A1311/A131105/13018604/",
    "lat": 35.73077253788058,
    "lng": 139.77083668371998,
    "closed": false,
    "firstSelected": false
  },
  {
    "name": "手打ちうどん まつ奈",
    "region": "EAST",
    "prefecture": "埼玉県",
    "area": "浦和駅",
    "holiday": "水曜日",
    "url": "https://tabelog.com/saitama/A1101/A110102/11028299/",
    "lat": 35.85365493776716,
    "lng": 139.65967788503912,
    "closed": false,
    "firstSelected": false
  },
  {
    "name": "酒と味噌煮込み 味噌煮込罠",
    "region": "EAST",
    "prefecture": "東京都",
    "area": "本郷三丁目駅",
    "holiday": "日曜・祝日",
    "url": "https://tabelog.com/tokyo/A1310/A131004/13036030/",
    "lat": 35.70640461869844,
    "lng": 139.7614435446422,
    "closed": false,
    "firstSelected": false
  },
  {
    "name": "おにやんま 人形町店",
    "region": "EAST",
    "prefecture": "東京都",
    "area": "人形町駅",
    "holiday": "",
    "url": "https://tabelog.com/tokyo/A1302/A130204/13216456/",
    "lat": 35.686006837912814,
    "lng": 139.78277678325944,
    "closed": false,
    "firstSelected": false
  },
  {
    "name": "香川 一福 神田店",
    "region": "EAST",
    "prefecture": "東京都",
    "area": "小川町駅",
    "holiday": "なし",
    "url": "https://tabelog.com/tokyo/A1310/A131002/13185500/",
    "lat": 35.6919137379041,
    "lng": 139.76717368333004,
    "closed": false,
    "firstSelected": false
  },
  {
    "name": "根津 釜竹",
    "region": "EAST",
    "prefecture": "東京都",
    "area": "根津駅",
    "holiday": "月曜、日曜",
    "url": "https://tabelog.com/tokyo/A1311/A131106/13020252/",
    "lat": 35.718090838692774,
    "lng": 139.76697234475637,
    "closed": false,
    "firstSelected": false
  },
  {
    "name": "讃岐うどん いそや",
    "region": "EAST",
    "prefecture": "東京都",
    "area": "京王八王子駅",
    "holiday": "月曜日",
    "url": "https://tabelog.com/tokyo/A1329/A132904/13022380/",
    "lat": 35.66135320859276,
    "lng": 139.33973434448276,
    "closed": false,
    "firstSelected": false
  },
  {
    "name": "cuud",
    "region": "EAST",
    "prefecture": "東京都",
    "area": "羽田空港第１ターミナル（東京モノレール）駅",
    "holiday": "無休",
    "url": "https://tabelog.com/tokyo/A1315/A131504/13193378/",
    "lat": 35.54809603800114,
    "lng": 139.78504228186483,
    "closed": false,
    "firstSelected": false
  },
  {
    "name": "田舎うどん てつ",
    "region": "EAST",
    "prefecture": "埼玉県",
    "area": "川越市",
    "holiday": "水曜日、木曜日 ※定休日が祝日の場合は営業",
    "url": "https://tabelog.com/saitama/A1103/A110303/11004160/",
    "lat": 35.889829568512944,
    "lng": 139.54477727664684,
    "closed": false,
    "firstSelected": false
  },
  {
    "name": "うどん山長",
    "region": "EAST",
    "prefecture": "東京都",
    "area": "恵比寿駅",
    "holiday": "無し",
    "url": "https://tabelog.com/tokyo/A1303/A130302/13045327/",
    "lat": 35.64830013791395,
    "lng": 139.71112428292878,
    "closed": false,
    "firstSelected": false
  },
  {
    "name": "純手打ち讃岐うどん五郎",
    "region": "EAST",
    "prefecture": "東京都",
    "area": "錦糸町駅",
    "holiday": "火曜日、木曜日、土曜日、日曜日、祝日",
    "url": "https://tabelog.com/tokyo/A1312/A131201/13156107/",
    "lat": 35.695825937915444,
    "lng": 139.8105927833391,
    "closed": false,
    "firstSelected": false
  },
  {
    "name": "一滴八銭屋 新宿本店",
    "region": "EAST",
    "prefecture": "東京都",
    "area": "新宿駅",
    "holiday": "お盆＆年末年始 (12/30～1/4)",
    "url": "https://tabelog.com/tokyo/A1304/A130401/13000760/",
    "lat": 35.68904883788364,
    "lng": 139.69717398335018,
    "closed": false,
    "firstSelected": false
  },
  {
    "name": "自家製さぬきうどんと肉 甚三 大門店",
    "region": "EAST",
    "prefecture": "東京都",
    "area": "大門駅",
    "holiday": "なし（年末年始休業あり）",
    "url": "https://tabelog.com/tokyo/A1314/A131401/13188754/",
    "lat": 35.65486803792331,
    "lng": 139.75361768296534,
    "closed": false,
    "firstSelected": false
  },
  {
    "name": "うどん処 おはな",
    "region": "EAST",
    "prefecture": "埼玉県",
    "area": "朝霞台駅",
    "holiday": "",
    "url": "https://tabelog.com/saitama/A1103/A110301/11022150/",
    "lat": 35.81463417857354,
    "lng": 139.58508411585908,
    "closed": false,
    "firstSelected": false
  },
  {
    "name": "信濃屋",
    "region": "EAST",
    "prefecture": "岐阜県",
    "area": "多治見市",
    "holiday": "月曜日、火曜日、水曜日、木曜日、日曜日",
    "url": "https://tabelog.com/gifu/A2103/A210301/21000027/",
    "lat": 35.33831608809297,
    "lng": 137.12614477277145,
    "closed": false,
    "firstSelected": false
  },
  {
    "name": "釜揚げうどん専門店もと",
    "region": "EAST",
    "prefecture": "神奈川県",
    "area": "平塚駅",
    "holiday": "火曜日・毎月最終週の月曜日",
    "url": "https://tabelog.com/kanagawa/A1404/A140407/14061080/",
    "lat": 35.334243848803965,
    "lng": 139.35058434117104,
    "closed": false,
    "firstSelected": false
  },
  {
    "name": "本格手打うどん あらた",
    "region": "EAST",
    "prefecture": "東京都",
    "area": "八王子駅",
    "holiday": "日曜・祝日",
    "url": "https://tabelog.com/tokyo/A1329/A132904/13025001/",
    "lat": 35.66022953778613,
    "lng": 139.33354268331396,
    "closed": false,
    "firstSelected": false
  },
  {
    "name": "讃岐うどん いわい",
    "region": "EAST",
    "prefecture": "東京都",
    "area": "十条駅",
    "holiday": "月曜日",
    "url": "https://tabelog.com/tokyo/A1323/A132304/13141130/",
    "lat": 35.76154022864987,
    "lng": 139.71887661522896,
    "closed": false,
    "firstSelected": false
  },
  {
    "name": "うどん家　一",
    "region": "EAST",
    "prefecture": "埼玉県",
    "area": "小手指駅",
    "holiday": "月曜日、第2・4火曜日",
    "url": "https://tabelog.com/saitama/A1106/A110601/11026435/",
    "lat": 35.80522694853268,
    "lng": 139.43801280586712,
    "closed": false,
    "firstSelected": false
  },
  {
    "name": "手打うどん 松屋",
    "region": "EAST",
    "prefecture": "埼玉県",
    "area": "桶川駅",
    "holiday": "月曜日",
    "url": "https://tabelog.com/saitama/A1104/A110401/11004724/",
    "lat": 36.00210566844787,
    "lng": 139.56434097776722,
    "closed": false,
    "firstSelected": false
  },
  {
    "name": "駕籠休み",
    "region": "EAST",
    "prefecture": "埼玉県",
    "area": "さいたま新都心駅",
    "holiday": "不定休",
    "url": "https://tabelog.com/saitama/A1101/A110101/11005442/",
    "lat": 35.90088333772807,
    "lng": 139.63119488553616,
    "closed": false,
    "firstSelected": false
  },
  {
    "name": "讃岐うどん 蔵之介",
    "region": "EAST",
    "prefecture": "東京都",
    "area": "高田馬場駅",
    "holiday": "月曜日、火曜日",
    "url": "https://tabelog.com/tokyo/A1305/A130503/13049983/",
    "lat": 35.71450983867612,
    "lng": 139.70751861476188,
    "closed": false,
    "firstSelected": false
  },
  {
    "name": "麺許皆伝",
    "region": "EAST",
    "prefecture": "山梨県",
    "area": "富士吉田市",
    "holiday": "日曜日",
    "url": "https://tabelog.com/yamanashi/A1903/A190301/19000136/",
    "lat": 35.47910837853683,
    "lng": 138.80067846301978,
    "closed": false,
    "firstSelected": false
  },
  {
    "name": "ががちゃ屋",
    "region": "EAST",
    "prefecture": "埼玉県",
    "area": "一本松駅",
    "holiday": "水曜日",
    "url": "https://tabelog.com/saitama/A1103/A110304/11017604/",
    "lat": 35.94280643842368,
    "lng": 139.37013415730436,
    "closed": false,
    "firstSelected": false
  },
  {
    "name": "めん専門店 味良",
    "region": "EAST",
    "prefecture": "愛知県",
    "area": "名古屋市北区",
    "holiday": "日曜日、祝日",
    "url": "https://tabelog.com/aichi/A2301/A230110/23013430/",
    "lat": 35.21235023729908,
    "lng": 136.91101438048807,
    "closed": false,
    "firstSelected": false
  },
  {
    "name": "葉隠",
    "region": "EAST",
    "prefecture": "東京都",
    "area": "赤坂見附駅",
    "holiday": "",
    "url": "https://tabelog.com/tokyo/A1308/A130801/13024229/",
    "lat": 35.67642340870955,
    "lng": 139.73652578435684,
    "closed": false,
    "firstSelected": false
  },
  {
    "name": "由す美",
    "region": "EAST",
    "prefecture": "埼玉県",
    "area": "行田市",
    "holiday": "月曜日、火曜日",
    "url": "https://tabelog.com/saitama/A1104/A110403/11003505/",
    "lat": 36.124774348329254,
    "lng": 139.43653134909587,
    "closed": false,
    "firstSelected": false
  },
  {
    "name": "うどん 丸香",
    "region": "EAST",
    "prefecture": "東京都",
    "area": "神保町駅",
    "holiday": "日曜日、祝日、振替休日、2023年11月4日、年末年始、GW(※火曜日が祝日の週の月曜日と金曜日が祝日の週の土曜日は休業日",
    "url": "https://tabelog.com/tokyo/A1310/A131003/13000629/",
    "lat": 35.696707437898816,
    "lng": 139.7601316833834,
    "closed": false,
    "firstSelected": false
  },
  {
    "name": "こんぴら茶屋",
    "region": "EAST",
    "prefecture": "東京都",
    "area": "目黒駅",
    "holiday": "無休 （年末年始は除く）",
    "url": "https://tabelog.com/tokyo/A1316/A131601/13013189/",
    "lat": 35.63382563792522,
    "lng": 139.71762688277803,
    "closed": false,
    "firstSelected": false
  },
  {
    "name": "釜あげうどん はつとみ",
    "region": "EAST",
    "prefecture": "東京都",
    "area": "江戸川橋駅",
    "holiday": "水、日・祝",
    "url": "https://tabelog.com/tokyo/A1309/A130905/13095976/",
    "lat": 35.709519737881195,
    "lng": 139.7303749835337,
    "closed": false,
    "firstSelected": false
  },
  {
    "name": "手打ちうどん ムサシ",
    "region": "EAST",
    "prefecture": "山梨県",
    "area": "富士吉田市",
    "holiday": "木曜日(祝日の場合営業)",
    "url": "https://tabelog.com/yamanashi/A1903/A190301/19000243/",
    "lat": 35.47607801853578,
    "lng": 138.7913268329957,
    "closed": false,
    "firstSelected": false
  },
  {
    "name": "手打うどん いわしや 青山店",
    "region": "EAST",
    "prefecture": "東京都",
    "area": "青山一丁目駅",
    "holiday": "日曜日、祝祭日",
    "url": "https://tabelog.com/tokyo/A1306/A130603/13224471/",
    "lat": 35.6729947379021,
    "lng": 139.72314168316979,
    "closed": false,
    "firstSelected": false
  },
  {
    "name": "難波千日前 釜たけうどん 八重洲北口店",
    "region": "EAST",
    "prefecture": "東京都",
    "area": "東京駅",
    "holiday": "無休",
    "url": "https://tabelog.com/tokyo/A1302/A130201/13156494/",
    "lat": 35.68247762871576,
    "lng": 139.76808184439588,
    "closed": false,
    "firstSelected": false
  },
  {
    "name": "五島うどん びぜん家",
    "region": "EAST",
    "prefecture": "東京都",
    "area": "武蔵小金井駅",
    "holiday": "月曜日（祝日の場合火曜日）",
    "url": "https://tabelog.com/tokyo/A1325/A132501/13126103/",
    "lat": 35.6997707378152,
    "lng": 139.50370718359412,
    "closed": false,
    "firstSelected": false
  },
  {
    "name": "稲庭うどんとめし 金子半之助 コレド室町店",
    "region": "EAST",
    "prefecture": "東京都",
    "area": "三越前駅",
    "holiday": "不定休(コレド室町に準ずる)",
    "url": "https://tabelog.com/tokyo/A1302/A130202/13193074/",
    "lat": 35.68696943871495,
    "lng": 139.77451171443673,
    "closed": false,
    "firstSelected": false
  },
  {
    "name": "ウドンスタンド五頭",
    "region": "EAST",
    "prefecture": "東京都",
    "area": "三鷹駅",
    "holiday": "日曜日",
    "url": "https://tabelog.com/tokyo/A1320/A132002/13117283/",
    "lat": 35.70734036863392,
    "lng": 139.56072074479235,
    "closed": false,
    "firstSelected": false
  },
  {
    "name": "みうらうどん",
    "region": "EAST",
    "prefecture": "山梨県",
    "area": "富士吉田市",
    "holiday": "水曜日(祝日は営業)(お盆・年末年始は営業)",
    "url": "https://tabelog.com/yamanashi/A1903/A190301/19000359/",
    "lat": 35.49455799852965,
    "lng": 138.80896079317003,
    "closed": false,
    "firstSelected": false
  },
  {
    "name": "きしや",
    "region": "EAST",
    "prefecture": "愛知県",
    "area": "池下駅",
    "holiday": "水曜日",
    "url": "https://tabelog.com/aichi/A2301/A230106/23001708/",
    "lat": 35.168633478142254,
    "lng": 136.94249486118622,
    "closed": false,
    "firstSelected": false
  },
  {
    "name": "きつね庵",
    "region": "EAST",
    "prefecture": "東京都",
    "area": "東銀座駅",
    "holiday": "不定休",
    "url": "https://tabelog.com/tokyo/A1301/A130101/13181414/",
    "lat": 35.6716648387224,
    "lng": 139.76739131428712,
    "closed": false,
    "firstSelected": false
  },
  {
    "name": "手打麺舗丸一",
    "region": "EAST",
    "prefecture": "愛知県",
    "area": "上前津駅",
    "holiday": "日曜日、祝日、お盆、年末年始",
    "url": "https://tabelog.com/aichi/A2301/A230105/23013180/",
    "lat": 35.155249637332965,
    "lng": 136.90351117991656,
    "closed": false,
    "firstSelected": true
  },
  {
    "name": "雅楽",
    "region": "EAST",
    "prefecture": "東京都",
    "area": "飯田橋駅",
    "holiday": "",
    "url": "https://tabelog.com/tokyo/A1309/A130905/13032356/",
    "lat": 35.70186030869667,
    "lng": 139.74682023460656,
    "closed": false,
    "firstSelected": false
  },
  {
    "name": "うどん 慎",
    "region": "EAST",
    "prefecture": "東京都",
    "area": "南新宿駅",
    "holiday": "年末年始(12/31～1/1)",
    "url": "https://tabelog.com/tokyo/A1304/A130401/13125862/",
    "lat": 35.686497368690574,
    "lng": 139.6970089644863,
    "closed": false,
    "firstSelected": false
  },
  {
    "name": "武蔵野うどん 澤村",
    "region": "EAST",
    "prefecture": "埼玉県",
    "area": "北戸田駅",
    "holiday": "",
    "url": "https://tabelog.com/saitama/A1102/A110202/11049204/",
    "lat": 35.833862358583175,
    "lng": 139.6536645260052,
    "closed": false,
    "firstSelected": true
  },
  {
    "name": "がむしゃら",
    "region": "EAST",
    "prefecture": "埼玉県",
    "area": "仏子駅",
    "holiday": "水曜日",
    "url": "https://tabelog.com/saitama/A1106/A110602/11029324/",
    "lat": 35.84604408848219,
    "lng": 139.36089349633343,
    "closed": false,
    "firstSelected": false
  },
  {
    "name": "よしふじ",
    "region": "EAST",
    "prefecture": "東京都",
    "area": "小平駅",
    "holiday": "木曜日",
    "url": "https://tabelog.com/tokyo/A1328/A132804/13080472/",
    "lat": 35.73707297859538,
    "lng": 139.49899093513594,
    "closed": false,
    "firstSelected": false
  },
  {
    "name": "トウキョウライトブルー ホンゴウスリー",
    "region": "EAST",
    "prefecture": "東京都",
    "area": "本郷三丁目駅",
    "holiday": "",
    "url": "https://tabelog.com/tokyo/A1310/A131004/13240246/",
    "lat": 35.70647863789273,
    "lng": 139.76056338348178,
    "closed": false,
    "firstSelected": false
  },
  {
    "name": "本格手打 もり家 東京店",
    "region": "EAST",
    "prefecture": "東京都",
    "area": "浜松町駅",
    "holiday": "日曜日、祝日",
    "url": "https://tabelog.com/tokyo/A1314/A131401/13227953/",
    "lat": 35.65441873792432,
    "lng": 139.75585678295926,
    "closed": false,
    "firstSelected": false
  },
  {
    "name": "六助うどん",
    "region": "EAST",
    "prefecture": "埼玉県",
    "area": "本庄市",
    "holiday": "火曜日",
    "url": "https://tabelog.com/saitama/A1105/A110504/11004153/",
    "lat": 36.23670556818603,
    "lng": 139.21004448038525,
    "closed": false,
    "firstSelected": false
  },
  {
    "name": "玉川 豊橋広小路本店",
    "region": "EAST",
    "prefecture": "愛知県",
    "area": "豊橋市",
    "holiday": "一月臨時休業日1/24水曜日。火曜日（火曜日が祝日の場合、原則翌水曜日に振替でお休みをいただきます。年末年始大型連休前後は変更がございます。",
    "url": "https://tabelog.com/aichi/A2306/A230601/23009617/",
    "lat": 34.764437037734346,
    "lng": 137.38446187563187,
    "closed": false,
    "firstSelected": false
  },
  {
    "name": "小平うどん 小平本店",
    "region": "EAST",
    "prefecture": "東京都",
    "area": "小平市",
    "holiday": "無休、12/31～1/4",
    "url": "https://tabelog.com/tokyo/A1328/A132804/13087964/",
    "lat": 35.71695434860745,
    "lng": 139.4967605249343,
    "closed": false,
    "firstSelected": false
  },
  {
    "name": "竹や",
    "region": "EAST",
    "prefecture": "東京都",
    "area": "御茶ノ水駅",
    "holiday": "日曜",
    "url": "https://tabelog.com/tokyo/A1310/A131002/13005072/",
    "lat": 35.70182683789747,
    "lng": 139.76611108343093,
    "closed": false,
    "firstSelected": false
  },
  {
    "name": "おにやんま 中目黒店",
    "region": "EAST",
    "prefecture": "東京都",
    "area": "中目黒駅",
    "holiday": "",
    "url": "https://tabelog.com/tokyo/A1317/A131701/13199054/",
    "lat": 35.64464223791225,
    "lng": 139.69849628290072,
    "closed": false,
    "firstSelected": false
  },
  {
    "name": "手打うどん 長谷沼",
    "region": "EAST",
    "prefecture": "埼玉県",
    "area": "本川越駅",
    "holiday": "水曜日、他臨時休業あり",
    "url": "https://tabelog.com/saitama/A1103/A110303/11033610/",
    "lat": 35.91573965847635,
    "lng": 139.4815442169529,
    "closed": false,
    "firstSelected": false
  },
  {
    "name": "手打 しまだ",
    "region": "EAST",
    "prefecture": "東京都",
    "area": "表参道駅",
    "holiday": "日曜日、第2・4土曜日",
    "url": "https://tabelog.com/tokyo/A1306/A130602/13006991/",
    "lat": 35.665867538709044,
    "lng": 139.71389915426607,
    "closed": false,
    "firstSelected": false
  },
  {
    "name": "武蔵野 伝統の味 涼太郎",
    "region": "EAST",
    "prefecture": "埼玉県",
    "area": "所沢駅",
    "holiday": "月曜",
    "url": "https://tabelog.com/saitama/A1106/A110601/11000460/",
    "lat": 35.78710991855672,
    "lng": 139.47738299565654,
    "closed": false,
    "firstSelected": false
  },
  {
    "name": "本手打ちうどん庄司",
    "region": "EAST",
    "prefecture": "埼玉県",
    "area": "比企郡川島町",
    "holiday": "不定休 ※HPにてお休みの情報が記載されてますのでご確認お願いします。",
    "url": "https://tabelog.com/saitama/A1105/A110502/11001574/",
    "lat": 35.972800368433916,
    "lng": 139.4620962175429,
    "closed": false,
    "firstSelected": false
  },
  {
    "name": "太常うどん 銀座本店",
    "region": "EAST",
    "prefecture": "東京都",
    "area": "東銀座駅",
    "holiday": "日・祝",
    "url": "https://tabelog.com/tokyo/A1301/A130101/13104580/",
    "lat": 35.66733700872448,
    "lng": 139.7652829242449,
    "closed": false,
    "firstSelected": false
  },
  {
    "name": "讃州手打ちうどん 我龍",
    "region": "EAST",
    "prefecture": "愛知県",
    "area": "西尾市",
    "holiday": "火曜日",
    "url": "https://tabelog.com/aichi/A2305/A230504/23032890/",
    "lat": 34.880711058381635,
    "lng": 137.11994179815355,
    "closed": false,
    "firstSelected": false
  },
  {
    "name": "三丁目の手打うどん",
    "region": "EAST",
    "prefecture": "埼玉県",
    "area": "武蔵藤沢駅",
    "holiday": "第2火曜日、水曜日",
    "url": "https://tabelog.com/saitama/A1106/A110602/11001573/",
    "lat": 35.82144097851612,
    "lng": 139.41836555604465,
    "closed": false,
    "firstSelected": false
  },
  {
    "name": "讃岐うどん 條辺",
    "region": "EAST",
    "prefecture": "埼玉県",
    "area": "上福岡駅",
    "holiday": "火曜日",
    "url": "https://tabelog.com/saitama/A1103/A110302/11004258/",
    "lat": 35.874968508512254,
    "lng": 139.51296475651904,
    "closed": false,
    "firstSelected": false
  },
  {
    "name": "手打うどん かとう",
    "region": "EAST",
    "prefecture": "愛知県",
    "area": "太閤通駅",
    "holiday": "火曜日(不定休あり 詳細は公式のinstagramで掲載しているのでそちらでご確認お願いします)",
    "url": "https://tabelog.com/aichi/A2301/A230101/23039141/",
    "lat": 35.16747082812082,
    "lng": 136.8728657512233,
    "closed": false,
    "firstSelected": false
  },
  {
    "name": "ぶつをのうどん",
    "region": "EAST",
    "prefecture": "栃木県",
    "area": "宇都宮市",
    "holiday": "水曜日",
    "url": "https://tabelog.com/tochigi/A0901/A090101/9003113/",
    "lat": 36.55575378819735,
    "lng": 139.88184634313703,
    "closed": false,
    "firstSelected": false
  },
  {
    "name": "むさしの エン座",
    "region": "EAST",
    "prefecture": "東京都",
    "area": "石神井公園駅",
    "holiday": "月曜日、第1火曜日",
    "url": "https://tabelog.com/tokyo/A1321/A132103/13022818/",
    "lat": 35.737538637821714,
    "lng": 139.59947388390844,
    "closed": false,
    "firstSelected": false
  },
  {
    "name": "慶屋",
    "region": "EAST",
    "prefecture": "東京都",
    "area": "日比谷駅",
    "holiday": "年中無休",
    "url": "https://tabelog.com/tokyo/A1301/A130102/13044658/",
    "lat": 35.673746837913896,
    "lng": 139.7617127831504,
    "closed": false,
    "firstSelected": false
  },
  {
    "name": "手打ちうどん　 いしづか",
    "region": "EAST",
    "prefecture": "埼玉県",
    "area": "桶川駅",
    "holiday": "木曜日",
    "url": "https://tabelog.com/saitama/A1104/A110401/11005554/",
    "lat": 35.999983518449866,
    "lng": 139.56638081774435,
    "closed": false,
    "firstSelected": false
  },
  {
    "name": "玉丁本店 八重洲店",
    "region": "EAST",
    "prefecture": "東京都",
    "area": "東京駅",
    "holiday": "無休",
    "url": "https://tabelog.com/tokyo/A1302/A130201/13015841/",
    "lat": 35.6792660054042,
    "lng": 139.76825591169353,
    "closed": false,
    "firstSelected": false
  },
  {
    "name": "野村屋本店",
    "region": "EAST",
    "prefecture": "栃木県",
    "area": "佐野市",
    "holiday": "木曜日",
    "url": "https://tabelog.com/tochigi/A0902/A090202/9001007/",
    "lat": 36.313182658255926,
    "lng": 139.58202428089697,
    "closed": false,
    "firstSelected": false
  },
  {
    "name": "村山 満月うどん",
    "region": "EAST",
    "prefecture": "東京都",
    "area": "武蔵村山市",
    "holiday": "月曜日、第2火曜日",
    "url": "https://tabelog.com/tokyo/A1329/A132901/13026307/",
    "lat": 35.757730778544165,
    "lng": 139.37935734542847,
    "closed": false,
    "firstSelected": false
  },
  {
    "name": "うちたて家",
    "region": "EAST",
    "prefecture": "東京都",
    "area": "池袋駅",
    "holiday": "無休",
    "url": "https://tabelog.com/tokyo/A1305/A130501/13003889/",
    "lat": 35.726157137865,
    "lng": 139.71266388371416,
    "closed": false,
    "firstSelected": false
  },
  {
    "name": "熊たまや",
    "region": "EAST",
    "prefecture": "埼玉県",
    "area": "熊谷駅",
    "holiday": "年中無休",
    "url": "https://tabelog.com/saitama/A1105/A110501/11020450/",
    "lat": 36.139350731385974,
    "lng": 139.38934147513595,
    "closed": false,
    "firstSelected": true
  },
  {
    "name": "五代目 花山うどん 銀座店",
    "region": "EAST",
    "prefecture": "東京都",
    "area": "東銀座駅",
    "holiday": "年末年始決まり次第お知らせします。",
    "url": "https://tabelog.com/tokyo/A1301/A130101/13200630/",
    "lat": 35.669908837918705,
    "lng": 139.7691464831064,
    "closed": false,
    "firstSelected": false
  },
  {
    "name": "永井",
    "region": "EAST",
    "prefecture": "埼玉県",
    "area": "入間郡三芳町",
    "holiday": "",
    "url": "https://tabelog.com/saitama/A1103/A110302/11033420/",
    "lat": 35.83433048393453,
    "lng": 139.51113401507757,
    "closed": false,
    "firstSelected": false
  },
  {
    "name": "手打ちうどん こげら",
    "region": "EAST",
    "prefecture": "東京都",
    "area": "東村山市",
    "holiday": "水曜日、木曜日",
    "url": "https://tabelog.com/tokyo/A1328/A132805/13163619/",
    "lat": 35.74218429857685,
    "lng": 139.45098396522124,
    "closed": false,
    "firstSelected": false
  },
  {
    "name": "あんぷく 池袋店",
    "region": "EAST",
    "prefecture": "東京都",
    "area": "池袋駅",
    "holiday": "年末年始【2023年12月30日～2024年1月4日ランチまでお休み】 2024年は1月4日のディナー(17時)～",
    "url": "https://tabelog.com/tokyo/A1305/A130501/13097934/",
    "lat": 35.73250143785981,
    "lng": 139.70905998378078,
    "closed": false,
    "firstSelected": false
  },
  {
    "name": "関西風手打うどん いらっしゃい",
    "region": "EAST",
    "prefecture": "東京都",
    "area": "入谷駅",
    "holiday": "日曜日",
    "url": "https://tabelog.com/tokyo/A1311/A131104/13042758/",
    "lat": 35.72037101005006,
    "lng": 139.7816865148446,
    "closed": false,
    "firstSelected": false
  },
  {
    "name": "手打うどん 福助",
    "region": "EAST",
    "prefecture": "東京都",
    "area": "青梅街道駅",
    "holiday": "月曜日、火曜日",
    "url": "https://tabelog.com/tokyo/A1328/A132804/13149268/",
    "lat": 35.72742783778848,
    "lng": 139.4749607838936,
    "closed": false,
    "firstSelected": false
  },
  {
    "name": "切麦や 甚六",
    "region": "EAST",
    "prefecture": "東京都",
    "area": "新宿御苑前駅",
    "holiday": "年末年始",
    "url": "https://tabelog.com/tokyo/A1304/A130402/13182646/",
    "lat": 35.689166628693606,
    "lng": 139.71186989450283,
    "closed": false,
    "firstSelected": false
  },
  {
    "name": "あそび",
    "region": "EAST",
    "prefecture": "埼玉県",
    "area": "比企郡小川町",
    "holiday": "月曜日",
    "url": "https://tabelog.com/saitama/A1105/A110605/11017560/",
    "lat": 36.05124607831702,
    "lng": 139.2514934884829,
    "closed": false,
    "firstSelected": false
  },
  {
    "name": "桜井うどん",
    "region": "EAST",
    "prefecture": "山梨県",
    "area": "富士吉田市",
    "holiday": "日曜日",
    "url": "https://tabelog.com/yamanashi/A1903/A190301/19000357/",
    "lat": 35.489090248530964,
    "lng": 138.80215418311954,
    "closed": false,
    "firstSelected": false
  },
  {
    "name": "武蔵野うどん 藤原 北与野本店",
    "region": "EAST",
    "prefecture": "埼玉県",
    "area": "北与野駅",
    "holiday": "日曜、第1・第3・第5月曜▼1月の定休日→ 日曜・15日(月)・29日(月)",
    "url": "https://tabelog.com/saitama/A1101/A110101/11004286/",
    "lat": 35.88936987853851,
    "lng": 139.62414405658654,
    "closed": false,
    "firstSelected": false
  },
  {
    "name": "讃岐屋 雅次郎",
    "region": "WEST",
    "prefecture": "大阪府",
    "area": "久宝寺口駅",
    "holiday": "",
    "url": "https://tabelog.com/osaka/A2707/A270705/27019261/",
    "lat": 34.64020834164038,
    "lng": 135.59081457676288,
    "closed": false,
    "firstSelected": false
  },
  {
    "name": "讃岐うどん いってつ",
    "region": "WEST",
    "prefecture": "大阪府",
    "area": "大阪狭山市",
    "holiday": "日曜",
    "url": "https://tabelog.com/osaka/A2708/A270802/27009072/",
    "lat": 34.49373480812683,
    "lng": 135.54812062534657,
    "closed": false,
    "firstSelected": false
  },
  {
    "name": "三ツ島 真打",
    "region": "WEST",
    "prefecture": "大阪府",
    "area": "門真市駅",
    "holiday": "月曜日",
    "url": "https://tabelog.com/osaka/A2707/A270701/27107160/",
    "lat": 34.73398263717992,
    "lng": 135.58281587658715,
    "closed": false,
    "firstSelected": true
  },
  {
    "name": "うどん うばら",
    "region": "WEST",
    "prefecture": "大阪府",
    "area": "大阪上本町駅",
    "holiday": "日・祝",
    "url": "https://tabelog.com/osaka/A2701/A270205/27060219/",
    "lat": 34.66701561800868,
    "lng": 135.52269538711462,
    "closed": false,
    "firstSelected": false
  },
  {
    "name": "ことり",
    "region": "WEST",
    "prefecture": "愛媛県",
    "area": "松山市",
    "holiday": "水曜日（臨休あり・公式Instagramにて要確認）",
    "url": "https://tabelog.com/ehime/A3801/A380101/38000037/",
    "lat": 33.836135227659625,
    "lng": 132.76962192065182,
    "closed": false,
    "firstSelected": true
  },
  {
    "name": "爽月",
    "region": "WEST",
    "prefecture": "大阪府",
    "area": "粉浜駅",
    "holiday": "木曜日、金曜日",
    "url": "https://tabelog.com/osaka/A2701/A270404/27051701/",
    "lat": 34.617332068030194,
    "lng": 135.4911623866349,
    "closed": false,
    "firstSelected": false
  },
  {
    "name": "うどん上々",
    "region": "WEST",
    "prefecture": "大阪府",
    "area": "玉造（ＪＲ）駅",
    "holiday": "日曜…定休、祝日…不定営業",
    "url": "https://tabelog.com/osaka/A2701/A270204/27063831/",
    "lat": 34.669123449109335,
    "lng": 135.535487284829,
    "closed": false,
    "firstSelected": true
  },
  {
    "name": "千とせ 本店",
    "region": "WEST",
    "prefecture": "大阪府",
    "area": "難波（南海）駅",
    "holiday": "火曜日",
    "url": "https://tabelog.com/osaka/A2701/A270202/27002763/",
    "lat": 34.66408793800459,
    "lng": 135.50401069709818,
    "closed": false,
    "firstSelected": false
  },
  {
    "name": "桂ちゃん",
    "region": "WEST",
    "prefecture": "大阪府",
    "area": "長原駅",
    "holiday": "木曜日・水曜日の夜",
    "url": "https://tabelog.com/osaka/A2701/A270405/27013633/",
    "lat": 34.601615868066624,
    "lng": 135.57421282641798,
    "closed": false,
    "firstSelected": false
  },
  {
    "name": "千舟屋",
    "region": "WEST",
    "prefecture": "兵庫県",
    "area": "伊丹（阪急）駅",
    "holiday": "火曜日、水曜日",
    "url": "https://tabelog.com/hyogo/A2803/A280306/28040453/",
    "lat": 34.778447967904086,
    "lng": 135.41648306831468,
    "closed": false,
    "firstSelected": true
  },
  {
    "name": "極楽うどん TKU",
    "region": "WEST",
    "prefecture": "大阪府",
    "area": "玉造（ＪＲ）駅",
    "holiday": "不定休(年末年始は休みあり)",
    "url": "https://tabelog.com/osaka/A2701/A270204/27042400/",
    "lat": 34.67428397800756,
    "lng": 135.5336598271804,
    "closed": false,
    "firstSelected": false
  },
  {
    "name": "うどん 讃く",
    "region": "WEST",
    "prefecture": "大阪府",
    "area": "新福島駅",
    "holiday": "火曜日",
    "url": "https://tabelog.com/osaka/A2701/A270108/27066859/",
    "lat": 34.69453903717446,
    "lng": 135.48697397625594,
    "closed": false,
    "firstSelected": false
  },
  {
    "name": "葉隠うどん",
    "region": "WEST",
    "prefecture": "福岡県",
    "area": "博多駅",
    "holiday": "日曜・祭日 ※お盆休み・正月休みあり",
    "url": "https://tabelog.com/fukuoka/A4001/A400101/40004342/",
    "lat": 33.58360973707322,
    "lng": 130.42465410974484,
    "closed": false,
    "firstSelected": false
  },
  {
    "name": "立花うどん",
    "region": "WEST",
    "prefecture": "福岡県",
    "area": "久留米市",
    "holiday": "火曜日、不定休 ※公式サイトに営業日カレンダーあり",
    "url": "https://tabelog.com/fukuoka/A4008/A400801/40006354/",
    "lat": 33.319641687281525,
    "lng": 130.55231942698904,
    "closed": false,
    "firstSelected": false
  },
  {
    "name": "うどん平",
    "region": "WEST",
    "prefecture": "福岡県",
    "area": "博多駅",
    "holiday": "日曜日、祝日",
    "url": "https://tabelog.com/fukuoka/A4001/A400101/40052349/",
    "lat": 33.58318858707075,
    "lng": 130.41604991974663,
    "closed": false,
    "firstSelected": true
  },
  {
    "name": "讃松庵",
    "region": "WEST",
    "prefecture": "兵庫県",
    "area": "中央市場前駅",
    "holiday": "月曜・日曜",
    "url": "https://tabelog.com/hyogo/A2801/A280109/28002342/",
    "lat": 34.66684368789742,
    "lng": 135.17297442735804,
    "closed": false,
    "firstSelected": true
  },
  {
    "name": "さぬき手打ちうどん 銭形",
    "region": "WEST",
    "prefecture": "大阪府",
    "area": "服部天神駅",
    "holiday": "火曜日、水曜日",
    "url": "https://tabelog.com/osaka/A2706/A270601/27012525/",
    "lat": 34.76283549793185,
    "lng": 135.4725497181177,
    "closed": false,
    "firstSelected": false
  },
  {
    "name": "手打ちうどん 紅屋",
    "region": "WEST",
    "prefecture": "大阪府",
    "area": "滝井駅",
    "holiday": "月曜金曜定休、臨時休業・営業時間変更あり（Facebookで告知）",
    "url": "https://tabelog.com/osaka/A2707/A270701/27017094/",
    "lat": 34.727989357980796,
    "lng": 135.55672714770668,
    "closed": false,
    "firstSelected": false
  },
  {
    "name": "今浪うどん",
    "region": "WEST",
    "prefecture": "福岡県",
    "area": "北九州市小倉南区",
    "holiday": "水曜日、第２・第４木曜日",
    "url": "https://tabelog.com/fukuoka/A4004/A400502/40005789/",
    "lat": 33.847589797049466,
    "lng": 130.87652625209452,
    "closed": false,
    "firstSelected": true
  },
  {
    "name": "たからや",
    "region": "WEST",
    "prefecture": "大阪府",
    "area": "八尾南駅",
    "holiday": "水曜･第1第3日曜日定休",
    "url": "https://tabelog.com/osaka/A2707/A270705/27019530/",
    "lat": 34.59382880807415,
    "lng": 135.58231078633364,
    "closed": false,
    "firstSelected": false
  },
  {
    "name": "やたがらす UDON",
    "region": "WEST",
    "prefecture": "大阪府",
    "area": "谷町四丁目駅",
    "holiday": "日曜・祝日・不定休",
    "url": "https://tabelog.com/osaka/A2701/A270104/27104366/",
    "lat": 34.682861037191415,
    "lng": 135.51695267611694,
    "closed": false,
    "firstSelected": true
  },
  {
    "name": "うどん 兎麦 阪急三番街店",
    "region": "WEST",
    "prefecture": "大阪府",
    "area": "大阪梅田（阪急）駅",
    "holiday": "不定休",
    "url": "https://tabelog.com/osaka/A2701/A270101/27002469/",
    "lat": 34.7047669371715,
    "lng": 135.49809947635146,
    "closed": false,
    "firstSelected": true
  },
  {
    "name": "麦きり トクオカ",
    "region": "WEST",
    "prefecture": "兵庫県",
    "area": "土山駅",
    "holiday": "火曜・水曜",
    "url": "https://tabelog.com/hyogo/A2804/A280401/28001187/",
    "lat": 34.721941036967436,
    "lng": 134.89159127695007,
    "closed": false,
    "firstSelected": false
  },
  {
    "name": "空飛ぶうどん やまぶき家",
    "region": "WEST",
    "prefecture": "大阪府",
    "area": "豊中駅",
    "holiday": "月曜日（祝日の場合は営業・翌火曜日に振替休）",
    "url": "https://tabelog.com/osaka/A2706/A270601/27069779/",
    "lat": 34.78475833710965,
    "lng": 135.46339247718373,
    "closed": false,
    "firstSelected": false
  },
  {
    "name": "山田製麺所",
    "region": "WEST",
    "prefecture": "大阪府",
    "area": "清水（大阪メトロ）駅",
    "holiday": "月曜日",
    "url": "https://tabelog.com/osaka/A2701/A270304/27014945/",
    "lat": 34.72197381798541,
    "lng": 135.55921902764416,
    "closed": false,
    "firstSelected": true
  },
  {
    "name": "たけうちうどん店",
    "region": "WEST",
    "prefecture": "大阪府",
    "area": "中津（大阪メトロ）駅",
    "holiday": "日曜・祝日",
    "url": "https://tabelog.com/osaka/A2701/A270101/27006684/",
    "lat": 34.712379017972594,
    "lng": 135.4998452475889,
    "closed": false,
    "firstSelected": false
  },
  {
    "name": "津田屋官兵衛",
    "region": "WEST",
    "prefecture": "福岡県",
    "area": "北九州市小倉南区",
    "holiday": "第１月曜日、日曜日",
    "url": "https://tabelog.com/fukuoka/A4004/A400502/40000486/",
    "lat": 33.83231963626927,
    "lng": 130.92513487074444,
    "closed": false,
    "firstSelected": true
  },
  {
    "name": "たぬき屋",
    "region": "WEST",
    "prefecture": "岡山県",
    "area": "岡山市北区",
    "holiday": "木曜日",
    "url": "https://tabelog.com/okayama/A3301/A330101/33000212/",
    "lat": 34.64895688750853,
    "lng": 133.91617938805837,
    "closed": false,
    "firstSelected": true
  },
  {
    "name": "扇町うどん屋 あすろう",
    "region": "WEST",
    "prefecture": "大阪府",
    "area": "扇町駅",
    "holiday": "水・木曜休み",
    "url": "https://tabelog.com/osaka/A2701/A270103/27110013/",
    "lat": 34.701760997982966,
    "lng": 135.51124364747363,
    "closed": false,
    "firstSelected": true
  },
  {
    "name": "梅田 釜たけうどん",
    "region": "WEST",
    "prefecture": "大阪府",
    "area": "梅田駅",
    "holiday": "無休",
    "url": "https://tabelog.com/osaka/A2701/A270101/27052204/",
    "lat": 34.70335683717238,
    "lng": 135.49804377633725,
    "closed": false,
    "firstSelected": false
  },
  {
    "name": "踊るうどん 滝井本店",
    "region": "WEST",
    "prefecture": "大阪府",
    "area": "滝井駅",
    "holiday": "第2、第4、第5日曜日",
    "url": "https://tabelog.com/osaka/A2707/A270701/27004023/",
    "lat": 34.727540627981156,
    "lng": 135.55695915770198,
    "closed": false,
    "firstSelected": false
  },
  {
    "name": "本格手打ちうどん とも作",
    "region": "WEST",
    "prefecture": "岡山県",
    "area": "倉敷市",
    "holiday": "月曜日（祝日の場合は翌日がお休み）",
    "url": "https://tabelog.com/okayama/A3302/A330201/33000864/",
    "lat": 34.636218636679516,
    "lng": 133.81654307683777,
    "closed": false,
    "firstSelected": true
  },
  {
    "name": "情熱うどん讃州 新大阪店",
    "region": "WEST",
    "prefecture": "大阪府",
    "area": "東三国駅",
    "holiday": "日曜日、祝日、土曜日不定休",
    "url": "https://tabelog.com/osaka/A2701/A270301/27066277/",
    "lat": 34.737709437150556,
    "lng": 135.49804247668425,
    "closed": false,
    "firstSelected": true
  },
  {
    "name": "極楽うどん Ah-麺",
    "region": "WEST",
    "prefecture": "大阪府",
    "area": "寺田町駅",
    "holiday": "無休",
    "url": "https://tabelog.com/osaka/A2701/A270306/27075334/",
    "lat": 34.64814660802132,
    "lng": 135.52475370692264,
    "closed": false,
    "firstSelected": false
  },
  {
    "name": "手しごと讃岐うどん 讃々",
    "region": "WEST",
    "prefecture": "兵庫県",
    "area": "平野駅",
    "holiday": "",
    "url": "https://tabelog.com/hyogo/A2803/A280305/28006846/",
    "lat": 34.87121831784323,
    "lng": 135.41040411925601,
    "closed": false,
    "firstSelected": true
  },
  {
    "name": "ゆうすけ",
    "region": "WEST",
    "prefecture": "大阪府",
    "area": "南方駅",
    "holiday": "第1月曜日、日曜日",
    "url": "https://tabelog.com/osaka/A2701/A270301/27078444/",
    "lat": 34.725813137158966,
    "lng": 135.50071607656218,
    "closed": false,
    "firstSelected": true
  },
  {
    "name": "京うどん 生蕎麦 岡北",
    "region": "WEST",
    "prefecture": "京都府",
    "area": "東山駅",
    "holiday": "火曜日と水曜日",
    "url": "https://tabelog.com/kyoto/A2601/A260302/26000919/",
    "lat": 35.01433060787157,
    "lng": 135.78481367043912,
    "closed": false,
    "firstSelected": false
  },
  {
    "name": "鍋焼うどん アサヒ",
    "region": "WEST",
    "prefecture": "愛媛県",
    "area": "松山市",
    "holiday": "火曜日、水曜日",
    "url": "https://tabelog.com/ehime/A3801/A380101/38000348/",
    "lat": 33.836409637659386,
    "lng": 132.76942501065474,
    "closed": false,
    "firstSelected": true
  },
  {
    "name": "うどん棒 大阪本店",
    "region": "WEST",
    "prefecture": "大阪府",
    "area": "東梅田駅",
    "holiday": "不定休（※公式HPで毎月告知されます）",
    "url": "https://tabelog.com/osaka/A2701/A270101/27003766/",
    "lat": 34.69904943717558,
    "lng": 135.49950707629273,
    "closed": false,
    "firstSelected": false
  },
  {
    "name": "うどん 蔵十",
    "region": "WEST",
    "prefecture": "大阪府",
    "area": "千林大宮駅",
    "holiday": "木曜日",
    "url": "https://tabelog.com/osaka/A2701/A270304/27000719/",
    "lat": 34.72172953717519,
    "lng": 135.54353157649095,
    "closed": false,
    "firstSelected": false
  },
  {
    "name": "麺匠 やしま",
    "region": "WEST",
    "prefecture": "大阪府",
    "area": "守口駅",
    "holiday": "月曜日（祝日の場合は翌日）その他、臨時休業有",
    "url": "https://tabelog.com/osaka/A2707/A270701/27012380/",
    "lat": 34.74183208797584,
    "lng": 135.5687632478381,
    "closed": false,
    "firstSelected": true
  },
  {
    "name": "どとう ぜにや",
    "region": "WEST",
    "prefecture": "大阪府",
    "area": "堺市中区",
    "holiday": "",
    "url": "https://tabelog.com/osaka/A2705/A270501/27013157/",
    "lat": 34.533834288088514,
    "lng": 135.50775167577987,
    "closed": false,
    "firstSelected": false
  },
  {
    "name": "本格手打 いわしや 西宮店",
    "region": "WEST",
    "prefecture": "兵庫県",
    "area": "西宮市",
    "holiday": "水曜日 (祝祭日の場合は営業、翌日木曜日は休業)",
    "url": "https://tabelog.com/hyogo/A2803/A280301/28002495/",
    "lat": 34.83425500781161,
    "lng": 135.23743869900386,
    "closed": false,
    "firstSelected": false
  },
  {
    "name": "うどん蔵ふじたや",
    "region": "WEST",
    "prefecture": "大阪府",
    "area": "岸和田駅",
    "holiday": "無休",
    "url": "https://tabelog.com/osaka/A2705/A270502/27073717/",
    "lat": 34.46323258809141,
    "lng": 135.37606082515904,
    "closed": false,
    "firstSelected": true
  },
  {
    "name": "がいな製麺所",
    "region": "WEST",
    "prefecture": "兵庫県",
    "area": "加西市",
    "holiday": "毎週火曜日、祝日は営業、 元旦・2日",
    "url": "https://tabelog.com/hyogo/A2804/A280403/28003753/",
    "lat": 34.946722767628415,
    "lng": 134.88647874038594,
    "closed": false,
    "firstSelected": false
  },
  {
    "name": "讃岐立食いうどん きりん屋 本町本店",
    "region": "WEST",
    "prefecture": "大阪府",
    "area": "本町駅",
    "holiday": "日曜日、祝日",
    "url": "https://tabelog.com/osaka/A2701/A270102/27107948/",
    "lat": 34.68741442798938,
    "lng": 135.50277809733467,
    "closed": false,
    "firstSelected": true
  },
  {
    "name": "糸庄 本店",
    "region": "WEST",
    "prefecture": "富山県",
    "area": "富山市",
    "holiday": "火曜・第1、3水曜（火曜日が祝日の場合は営業。翌日水曜日休業日）",
    "url": "https://tabelog.com/toyama/A1601/A160101/16000661/",
    "lat": 36.67793453726927,
    "lng": 137.2113340462431,
    "closed": false,
    "firstSelected": false
  },
  {
    "name": "釜あげ饂飩 楽",
    "region": "WEST",
    "prefecture": "大阪府",
    "area": "玉出駅",
    "holiday": "月曜日",
    "url": "https://tabelog.com/osaka/A2701/A270406/27018449/",
    "lat": 34.62674382802397,
    "lng": 135.49037341673053,
    "closed": false,
    "firstSelected": true
  },
  {
    "name": "Udon Kyutaro",
    "region": "WEST",
    "prefecture": "大阪府",
    "area": "本町駅",
    "holiday": "日曜、祝日、不定休 ※年始1/9(火)より営業いたします※ 1/19(金),1/27(土),1/29(月)休み",
    "url": "https://tabelog.com/osaka/A2701/A270106/27100801/",
    "lat": 34.680876647993465,
    "lng": 135.50256885726878,
    "closed": false,
    "firstSelected": false
  },
  {
    "name": "讃岐うどん 白庵",
    "region": "WEST",
    "prefecture": "大阪府",
    "area": "神崎川駅",
    "holiday": "火曜の夜・水曜 ※他夏期休暇あり",
    "url": "https://tabelog.com/osaka/A2701/A270302/27014852/",
    "lat": 34.73197623714646,
    "lng": 135.4737119766434,
    "closed": false,
    "firstSelected": false
  },
  {
    "name": "釜喜利うどん",
    "region": "WEST",
    "prefecture": "福岡県",
    "area": "赤坂駅",
    "holiday": "不定休 基本火水定休",
    "url": "https://tabelog.com/fukuoka/A4001/A400104/40034851/",
    "lat": 33.58582984706128,
    "lng": 130.39157080979047,
    "closed": false,
    "firstSelected": false
  },
  {
    "name": "自家製粉石臼挽きうどん 青空blue 本店",
    "region": "WEST",
    "prefecture": "大阪府",
    "area": "肥後橋駅",
    "holiday": "日曜日",
    "url": "https://tabelog.com/osaka/A2701/A270102/27082212/",
    "lat": 34.68786973718234,
    "lng": 135.49840307618055,
    "closed": false,
    "firstSelected": false
  },
  {
    "name": "讃岐麺房 すずめ",
    "region": "WEST",
    "prefecture": "兵庫県",
    "area": "三宮（神戸新交通）駅",
    "holiday": "土曜",
    "url": "https://tabelog.com/hyogo/A2801/A280101/28000703/",
    "lat": 34.695984287887036,
    "lng": 135.19849400763454,
    "closed": false,
    "firstSelected": true
  },
  {
    "name": "うつ輪",
    "region": "WEST",
    "prefecture": "大阪府",
    "area": "東貝塚駅",
    "holiday": "不定休",
    "url": "https://tabelog.com/osaka/A2705/A270502/27040395/",
    "lat": 34.43937887137722,
    "lng": 135.3773365526453,
    "closed": false,
    "firstSelected": true
  },
  {
    "name": "山斗",
    "region": "WEST",
    "prefecture": "大阪府",
    "area": "西大橋駅",
    "holiday": "水曜日と土曜日の夜、日曜日（祝日は不定休）",
    "url": "https://tabelog.com/osaka/A2701/A270201/27040461/",
    "lat": 34.67786453718716,
    "lng": 135.49362907608284,
    "closed": false,
    "firstSelected": true
  },
  {
    "name": "うどんdining KONA×MIZU×SHIO",
    "region": "WEST",
    "prefecture": "大阪府",
    "area": "堺筋本町駅",
    "holiday": "日曜日・月曜日",
    "url": "https://tabelog.com/osaka/A2701/A270106/27089426/",
    "lat": 34.682252167994925,
    "lng": 135.50987747727757,
    "closed": false,
    "firstSelected": true
  },
  {
    "name": "き田たけうどん",
    "region": "WEST",
    "prefecture": "大阪府",
    "area": "難波（南海）駅",
    "holiday": "月曜日",
    "url": "https://tabelog.com/osaka/A2701/A270202/27103359/",
    "lat": 34.662747698005546,
    "lng": 135.50434600708442,
    "closed": false,
    "firstSelected": true
  },
  {
    "name": "本格手打うどん 大河",
    "region": "WEST",
    "prefecture": "京都府",
    "area": "藤森駅",
    "holiday": "月曜夜、火曜日",
    "url": "https://tabelog.com/kyoto/A2601/A260601/26020260/",
    "lat": 34.957966567900954,
    "lng": 135.76467833988391,
    "closed": false,
    "firstSelected": false
  },
  {
    "name": "手打ちうどん吉野",
    "region": "WEST",
    "prefecture": "兵庫県",
    "area": "尼崎（ＪＲ）駅",
    "holiday": "日・祝日",
    "url": "https://tabelog.com/hyogo/A2803/A280304/28004745/",
    "lat": 34.729935377939874,
    "lng": 135.43214688781367,
    "closed": false,
    "firstSelected": true
  },
  {
    "name": "手作りうどん 天粉盛",
    "region": "WEST",
    "prefecture": "大阪府",
    "area": "大国町駅",
    "holiday": "日曜日",
    "url": "https://tabelog.com/osaka/A2701/A270206/27111140/",
    "lat": 34.654797418008904,
    "lng": 135.49903910700783,
    "closed": false,
    "firstSelected": true
  },
  {
    "name": "Udama 谷町base",
    "region": "WEST",
    "prefecture": "大阪府",
    "area": "谷町四丁目駅",
    "holiday": "火曜日 ＊祭日の場合は営業し、翌日の水曜日がお休みとなります。",
    "url": "https://tabelog.com/osaka/A2701/A270104/27131636/",
    "lat": 34.68498163718936,
    "lng": 135.51471757613996,
    "closed": false,
    "firstSelected": true
  },
  {
    "name": "うどん ゆきの",
    "region": "WEST",
    "prefecture": "大阪府",
    "area": "西田辺駅",
    "holiday": "第1月曜日、第3月曜日、日曜日、祝日",
    "url": "https://tabelog.com/osaka/A2701/A270405/27000574/",
    "lat": 34.621242298037025,
    "lng": 135.5204219566539,
    "closed": false,
    "firstSelected": false
  },
  {
    "name": "うさみ亭マツバヤ",
    "region": "WEST",
    "prefecture": "大阪府",
    "area": "心斎橋駅",
    "holiday": "日曜日、祝日",
    "url": "https://tabelog.com/osaka/A2701/A270201/27000931/",
    "lat": 34.67795990799526,
    "lng": 135.50238151723946,
    "closed": false,
    "firstSelected": true
  },
  {
    "name": "麺くい やまちゃん",
    "region": "WEST",
    "prefecture": "大阪府",
    "area": "堺東駅",
    "holiday": "火曜日",
    "url": "https://tabelog.com/osaka/A2705/A270501/27017764/",
    "lat": 34.57031690805715,
    "lng": 135.48204290616638,
    "closed": false,
    "firstSelected": true
  },
  {
    "name": "うどん日和",
    "region": "WEST",
    "prefecture": "大阪府",
    "area": "吉田駅",
    "holiday": "日曜日",
    "url": "https://tabelog.com/osaka/A2707/A270703/27023042/",
    "lat": 34.6834351080305,
    "lng": 135.62398458720952,
    "closed": false,
    "firstSelected": false
  },
  {
    "name": "熟成うどん なかや",
    "region": "WEST",
    "prefecture": "大阪府",
    "area": "東三国駅",
    "holiday": "日曜日 祝日は不定休 年末年始 GW お盆 等お休みをいただく場合があります。2023年8月11日から15日まで休みます。16日は昼のみ営業です。",
    "url": "https://tabelog.com/osaka/A2701/A270301/27053546/",
    "lat": 34.739158347589886,
    "lng": 135.4973533384259,
    "closed": false,
    "firstSelected": true
  },
  {
    "name": "つきろう",
    "region": "WEST",
    "prefecture": "大阪府",
    "area": "北加賀屋駅",
    "holiday": "日曜日",
    "url": "https://tabelog.com/osaka/A2701/A270404/27018219/",
    "lat": 34.62270313721894,
    "lng": 135.48336737553285,
    "closed": false,
    "firstSelected": true
  },
  {
    "name": "丸池製麺所",
    "region": "WEST",
    "prefecture": "徳島県",
    "area": "板野郡板野町",
    "holiday": "水曜日",
    "url": "https://tabelog.com/tokushima/A3603/A360303/36003089/",
    "lat": 34.13588028801109,
    "lng": 134.47101739248689,
    "closed": false,
    "firstSelected": false
  },
  {
    "name": "純愛うどん なでしこ",
    "region": "WEST",
    "prefecture": "大阪府",
    "area": "布施駅",
    "holiday": "不定休",
    "url": "https://tabelog.com/osaka/A2707/A270703/27097554/",
    "lat": 34.661879637219364,
    "lng": 135.56287087587282,
    "closed": false,
    "firstSelected": true
  },
  {
    "name": "堺うどん ちはや",
    "region": "WEST",
    "prefecture": "大阪府",
    "area": "堺東駅",
    "holiday": "日曜日、祭日",
    "url": "https://tabelog.com/osaka/A2705/A270501/27061050/",
    "lat": 34.576064958053685,
    "lng": 135.48262885622407,
    "closed": false,
    "firstSelected": true
  },
  {
    "name": "きしめん あまの",
    "region": "WEST",
    "prefecture": "大阪府",
    "area": "梅田駅",
    "holiday": "不定休(ホワイティうめだに準ずる)",
    "url": "https://tabelog.com/osaka/A2701/A270101/27000285/",
    "lat": 34.70314861797835,
    "lng": 135.49952161749584,
    "closed": false,
    "firstSelected": true
  },
  {
    "name": "活麺富蔵",
    "region": "WEST",
    "prefecture": "大阪府",
    "area": "四条畷駅",
    "holiday": "不定休（基本は月曜日と火曜日、祝日の場合翌日に振替）",
    "url": "https://tabelog.com/osaka/A2707/A270704/27052338/",
    "lat": 34.73249553719902,
    "lng": 135.6398370765322,
    "closed": false,
    "firstSelected": false
  },
  {
    "name": "本町製麺所 本店",
    "region": "WEST",
    "prefecture": "大阪府",
    "area": "堺筋本町駅",
    "holiday": "",
    "url": "https://tabelog.com/osaka/A2701/A270106/27014646/",
    "lat": 34.6798317179947,
    "lng": 135.50437548725694,
    "closed": false,
    "firstSelected": false
  },
  {
    "name": "讃岐うどん はるしん",
    "region": "WEST",
    "prefecture": "兵庫県",
    "area": "尼崎（ＪＲ）駅",
    "holiday": "火曜・水曜",
    "url": "https://tabelog.com/hyogo/A2803/A280304/28004733/",
    "lat": 34.73341649132799,
    "lng": 135.43543624499966,
    "closed": false,
    "firstSelected": false
  },
  {
    "name": "日の出うどん",
    "region": "WEST",
    "prefecture": "京都府",
    "area": "蹴上駅",
    "holiday": "日曜日/第１・第３月曜日（祝日の場合翌日） ※7・8・12月は不定休",
    "url": "https://tabelog.com/kyoto/A2601/A260301/26000815/",
    "lat": 35.01639043787307,
    "lng": 135.79364916045375,
    "closed": false,
    "firstSelected": false
  },
  {
    "name": "本格さぬきうどん　穂乃香",
    "region": "WEST",
    "prefecture": "兵庫県",
    "area": "尼崎（阪神）駅",
    "holiday": "月曜日",
    "url": "https://tabelog.com/hyogo/A2803/A280304/28025306/",
    "lat": 34.72049302793925,
    "lng": 135.41131216773292,
    "closed": false,
    "firstSelected": false
  },
  {
    "name": "讃歌うどん はんげしょう",
    "region": "WEST",
    "prefecture": "兵庫県",
    "area": "西宮（阪神）駅",
    "holiday": "木曜日",
    "url": "https://tabelog.com/hyogo/A2803/A280301/28026561/",
    "lat": 34.73430863710145,
    "lng": 135.33707937676274,
    "closed": false,
    "firstSelected": false
  },
  {
    "name": "天政",
    "region": "WEST",
    "prefecture": "大阪府",
    "area": "大阪難波駅",
    "holiday": "不定休",
    "url": "https://tabelog.com/osaka/A2701/A270202/27024361/",
    "lat": 34.66645004800245,
    "lng": 135.50201717712343,
    "closed": false,
    "firstSelected": true
  },
  {
    "name": "上を向いて",
    "region": "WEST",
    "prefecture": "大阪府",
    "area": "香里園駅",
    "holiday": "月曜・火曜",
    "url": "https://tabelog.com/osaka/A2707/A270702/27094977/",
    "lat": 34.78379623716276,
    "lng": 135.62826737705845,
    "closed": false,
    "firstSelected": false
  },
  {
    "name": "踊るうどん 梅田店",
    "region": "WEST",
    "prefecture": "大阪府",
    "area": "東梅田駅",
    "holiday": "無休",
    "url": "https://tabelog.com/osaka/A2701/A270101/27015312/",
    "lat": 34.69848500798123,
    "lng": 135.49925883744893,
    "closed": false,
    "firstSelected": false
  },
  {
    "name": "讃岐うどん 今雪",
    "region": "WEST",
    "prefecture": "大阪府",
    "area": "扇町駅",
    "holiday": "不定休",
    "url": "https://tabelog.com/osaka/A2701/A270101/27067874/",
    "lat": 34.70300773717516,
    "lng": 135.5060773763281,
    "closed": false,
    "firstSelected": false
  },
  {
    "name": "釜ひろ",
    "region": "WEST",
    "prefecture": "大阪府",
    "area": "鶴ケ丘駅",
    "holiday": "火曜日、第3月曜日",
    "url": "https://tabelog.com/osaka/A2701/A270405/27011913/",
    "lat": 34.61767969803829,
    "lng": 135.51728146662012,
    "closed": false,
    "firstSelected": false
  },
  {
    "name": "釜揚げうどん 織田薪 本店",
    "region": "WEST",
    "prefecture": "宮崎県",
    "area": "宮崎市",
    "holiday": "日曜",
    "url": "https://tabelog.com/miyazaki/A4501/A450101/45001975/",
    "lat": 31.914843437645178,
    "lng": 131.42150555102822,
    "closed": false,
    "firstSelected": false
  },
  {
    "name": "一匠",
    "region": "WEST",
    "prefecture": "徳島県",
    "area": "鳴門市",
    "holiday": "火曜日",
    "url": "https://tabelog.com/tokushima/A3601/A360102/36002902/",
    "lat": 34.15498659803768,
    "lng": 134.59260034259464,
    "closed": false,
    "firstSelected": false
  },
  {
    "name": "釜揚うどん一紀",
    "region": "WEST",
    "prefecture": "大阪府",
    "area": "今宮駅",
    "holiday": "日曜日、祝日",
    "url": "https://tabelog.com/osaka/A2701/A270406/27059480/",
    "lat": 34.65137285800849,
    "lng": 135.49089873697895,
    "closed": false,
    "firstSelected": false
  },
  {
    "name": "らんぷ若蔵",
    "region": "WEST",
    "prefecture": "大阪府",
    "area": "寝屋川市駅",
    "holiday": "木曜日",
    "url": "https://tabelog.com/osaka/A2707/A270702/27078379/",
    "lat": 34.766839157977415,
    "lng": 135.62359169805222,
    "closed": false,
    "firstSelected": true
  },
  {
    "name": "釜揚うどん 一心",
    "region": "WEST",
    "prefecture": "大阪府",
    "area": "長居駅",
    "holiday": "火曜日",
    "url": "https://tabelog.com/osaka/A2701/A270404/27013396/",
    "lat": 34.60811840804323,
    "lng": 135.513752196526,
    "closed": false,
    "firstSelected": true
  },
  {
    "name": "うどん屋 きすけ",
    "region": "WEST",
    "prefecture": "大阪府",
    "area": "中崎町駅",
    "holiday": "火曜日、第1・3・5水曜日",
    "url": "https://tabelog.com/osaka/A2701/A270101/27015342/",
    "lat": 34.70937272797503,
    "lng": 135.50148878755735,
    "closed": false,
    "firstSelected": false
  },
  {
    "name": "かろのうろん",
    "region": "WEST",
    "prefecture": "福岡県",
    "area": "櫛田神社前駅",
    "holiday": "火曜（祝日は営業）",
    "url": "https://tabelog.com/fukuoka/A4001/A400102/40000027/",
    "lat": 33.59243944706328,
    "lng": 130.41104465984355,
    "closed": false,
    "firstSelected": true
  },
  {
    "name": "手造りうどん 楽々",
    "region": "WEST",
    "prefecture": "大阪府",
    "area": "郡津駅",
    "holiday": "月曜・火曜",
    "url": "https://tabelog.com/osaka/A2707/A270704/27011240/",
    "lat": 34.80156160797174,
    "lng": 135.67502041836693,
    "closed": false,
    "firstSelected": false
  },
  {
    "name": "うどん工房悠々",
    "region": "WEST",
    "prefecture": "兵庫県",
    "area": "塚口（阪急）駅",
    "holiday": "月曜日",
    "url": "https://tabelog.com/hyogo/A2803/A280304/28029478/",
    "lat": 34.751789057921,
    "lng": 135.41644878804541,
    "closed": false,
    "firstSelected": false
  },
  {
    "name": "饂飩とお酒 からほり きぬ川",
    "region": "WEST",
    "prefecture": "大阪府",
    "area": "谷町六丁目駅",
    "holiday": "火曜",
    "url": "https://tabelog.com/osaka/A2701/A270204/27061119/",
    "lat": 34.67347684800221,
    "lng": 135.51526778718514,
    "closed": false,
    "firstSelected": false
  },
  {
    "name": "みやけうどん",
    "region": "WEST",
    "prefecture": "福岡県",
    "area": "呉服町駅",
    "holiday": "日祝日",
    "url": "https://tabelog.com/fukuoka/A4001/A400106/40003615/",
    "lat": 33.5983618570594,
    "lng": 130.41070120990364,
    "closed": false,
    "firstSelected": true
  },
  {
    "name": "手打ちうどん 団平",
    "region": "WEST",
    "prefecture": "大阪府",
    "area": "御殿山駅",
    "holiday": "月曜日、火曜日",
    "url": "https://tabelog.com/osaka/A2707/A270702/27006805/",
    "lat": 34.832327707945936,
    "lng": 135.65535293869146,
    "closed": false,
    "firstSelected": false
  },
  {
    "name": "江戸堀 木田 讃岐うどん",
    "region": "WEST",
    "prefecture": "大阪府",
    "area": "肥後橋駅",
    "holiday": "日曜・祝日",
    "url": "https://tabelog.com/osaka/A2701/A270102/27027893/",
    "lat": 34.689617307984975,
    "lng": 135.49332263736352,
    "closed": false,
    "firstSelected": false
  },
  {
    "name": "麺匠 空海",
    "region": "WEST",
    "prefecture": "兵庫県",
    "area": "西宮（ＪＲ）駅",
    "holiday": "",
    "url": "https://tabelog.com/hyogo/A2803/A280301/28003941/",
    "lat": 34.73717573710408,
    "lng": 135.3510117767819,
    "closed": false,
    "firstSelected": true
  },
  {
    "name": "釜揚げうどん 鈴庵",
    "region": "WEST",
    "prefecture": "奈良県",
    "area": "北葛城郡広陵町",
    "holiday": "不定休",
    "url": "https://tabelog.com/nara/A2903/A290301/29004110/",
    "lat": 34.54784285814787,
    "lng": 135.72208142577117,
    "closed": false,
    "firstSelected": false
  }
]